[
{"city": "Birmingham", "region": "Alabama", "country_en": "United States of America", "country": "United States of America", "latitude": "33.52066", "longitude": "-86.80249", "geonameid": "4049979"},
{"city": "Decatur", "region": "Alabama", "country_en": "United States of America", "country": "United States of America", "latitude": "34.60593", "longitude": "-86.98334", "geonameid": "4058553"},
{"city": "Dothan", "region": "Alabama", "country_en": "United States of America", "country": "United States of America", "latitude": "31.22323", "longitude": "-85.39049", "geonameid": "4059102"},
{"city": "Hoover", "region": "Alabama", "country_en": "United States of America", "country": "United States of America", "latitude": "33.40539", "longitude": "-86.81138", "geonameid": "4067994"},
{"city": "Huntsville", "region": "Alabama", "country_en": "United States of America", "country": "United States of America", "latitude": "34.7304", "longitude": "-86.58594", "geonameid": "4068590"},
{"city": "Mobile", "region": "Alabama", "country_en": "United States of America", "country": "United States of America", "latitude": "30.69436", "longitude": "-88.04305", "geonameid": "4076598"},
{"city": "Montgomery", "region": "Alabama", "country_en": "United States of America", "country": "United States of America", "latitude": "32.36681", "longitude": "-86.29997", "geonameid": "4076784"},
{"city": "Tuscaloosa", "region": "Alabama", "country_en": "United States of America", "country": "United States of America", "latitude": "33.20984", "longitude": "-87.56917", "geonameid": "4094455"},
{"city": "Conway", "region": "Arkansas", "country_en": "United States of America", "country": "United States of America", "latitude": "35.0887", "longitude": "-92.4421", "geonameid": "4106458"},
{"city": "Fayetteville", "region": "Arkansas", "country_en": "United States of America", "country": "United States of America", "latitude": "36.06258", "longitude": "-94.15743", "geonameid": "4110486"},
{"city": "Fort Smith", "region": "Arkansas", "country_en": "United States of America", "country": "United States of America", "latitude": "35.38592", "longitude": "-94.39855", "geonameid": "4111410"},
{"city": "Jonesboro", "region": "Arkansas", "country_en": "United States of America", "country": "United States of America", "latitude": "35.8423", "longitude": "-90.70428", "geonameid": "4116834"},
{"city": "Little Rock", "region": "Arkansas", "country_en": "United States of America", "country": "United States of America", "latitude": "34.74648", "longitude": "-92.28959", "geonameid": "4119403"},
{"city": "North Little Rock", "region": "Arkansas", "country_en": "United States of America", "country": "United States of America", "latitude": "34.76954", "longitude": "-92.26709", "geonameid": "4124112"},
{"city": "Rogers", "region": "Arkansas", "country_en": "United States of America", "country": "United States of America", "latitude": "36.33202", "longitude": "-94.11854", "geonameid": "4128894"},
{"city": "Springdale", "region": "Arkansas", "country_en": "United States of America", "country": "United States of America", "latitude": "36.18674", "longitude": "-94.12881", "geonameid": "4132093"},
{"city": "Washington", "region": "Washington, D.C.", "country_en": "United States of America", "country": "United States of America", "latitude": "38.89511", "longitude": "-77.03637", "geonameid": "4140963"},
{"city": "Wilmington", "region": "Delaware", "country_en": "United States of America", "country": "United States of America", "latitude": "39.74595", "longitude": "-75.54659", "geonameid": "4145381"},
{"city": "Allapattah", "region": "Florida", "country_en": "United States of America", "country": "United States of America", "latitude": "25.81454", "longitude": "-80.22394", "geonameid": "4145805"},
{"city": "Boca Raton", "region": "Florida", "country_en": "United States of America", "country": "United States of America", "latitude": "26.35869", "longitude": "-80.0831", "geonameid": "4148411"},
{"city": "Bonita Springs", "region": "Florida", "country_en": "United States of America", "country": "United States of America", "latitude": "26.33981", "longitude": "-81.7787", "geonameid": "4148533"},
{"city": "Boynton Beach", "region": "Florida", "country_en": "United States of America", "country": "United States of America", "latitude": "26.52535", "longitude": "-80.06643", "geonameid": "4148677"},
{"city": "Bradenton", "region": "Florida", "country_en": "United States of America", "country": "United States of America", "latitude": "27.49893", "longitude": "-82.57482", "geonameid": "4148708"},
{"city": "Brandon", "region": "Florida", "country_en": "United States of America", "country": "United States of America", "latitude": "27.9378", "longitude": "-82.28592", "geonameid": "4148757"},
{"city": "Cape Coral", "region": "Florida", "country_en": "United States of America", "country": "United States of America", "latitude": "26.56285", "longitude": "-81.94953", "geonameid": "4149962"},
{"city": "Carol City", "region": "Florida", "country_en": "United States of America", "country": "United States of America", "latitude": "25.94065", "longitude": "-80.2456", "geonameid": "4150066"},
{"city": "Clearwater", "region": "Florida", "country_en": "United States of America", "country": "United States of America", "latitude": "27.96585", "longitude": "-82.8001", "geonameid": "4151316"},
{"city": "Coconut Creek", "region": "Florida", "country_en": "United States of America", "country": "United States of America", "latitude": "26.25175", "longitude": "-80.17894", "geonameid": "4151455"},
{"city": "Coral Gables", "region": "Florida", "country_en": "United States of America", "country": "United States of America", "latitude": "25.72149", "longitude": "-80.26838", "geonameid": "4151871"},
{"city": "Coral Springs", "region": "Florida", "country_en": "United States of America", "country": "United States of America", "latitude": "26.27119", "longitude": "-80.2706", "geonameid": "4151909"},
{"city": "Davie", "region": "Florida", "country_en": "United States of America", "country": "United States of America", "latitude": "26.06287", "longitude": "-80.2331", "geonameid": "4152820"},
{"city": "Daytona Beach", "region": "Florida", "country_en": "United States of America", "country": "United States of America", "latitude": "29.21081", "longitude": "-81.02283", "geonameid": "4152872"},
{"city": "Deerfield Beach", "region": "Florida", "country_en": "United States of America", "country": "United States of America", "latitude": "26.31841", "longitude": "-80.09977", "geonameid": "4153071"},
{"city": "Delray Beach", "region": "Florida", "country_en": "United States of America", "country": "United States of America", "latitude": "26.46146", "longitude": "-80.07282", "geonameid": "4153132"},
{"city": "Deltona", "region": "Florida", "country_en": "United States of America", "country": "United States of America", "latitude": "28.90054", "longitude": "-81.26367", "geonameid": "4153146"},
{"city": "Doral", "region": "Florida", "country_en": "United States of America", "country": "United States of America", "latitude": "25.81954", "longitude": "-80.35533", "geonameid": "4153471"},
{"city": "East Pensacola Heights", "region": "Florida", "country_en": "United States of America", "country": "United States of America", "latitude": "30.42881", "longitude": "-87.17997", "geonameid": "4154047"},
{"city": "Flagami", "region": "Florida", "country_en": "United States of America", "country": "United States of America", "latitude": "25.76232", "longitude": "-80.31616", "geonameid": "4155529"},
{"city": "Fort Lauderdale", "region": "Florida", "country_en": "United States of America", "country": "United States of America", "latitude": "26.12231", "longitude": "-80.14338", "geonameid": "4155966"},
{"city": "Fort Myers", "region": "Florida", "country_en": "United States of America", "country": "United States of America", "latitude": "26.62168", "longitude": "-81.84059", "geonameid": "4155995"},
{"city": "Fountainebleau", "region": "Florida", "country_en": "United States of America", "country": "United States of America", "latitude": "25.77288", "longitude": "-80.34783", "geonameid": "4156091"},
{"city": "Gainesville", "region": "Florida", "country_en": "United States of America", "country": "United States of America", "latitude": "29.65163", "longitude": "-82.32483", "geonameid": "4156404"},
{"city": "Hialeah", "region": "Florida", "country_en": "United States of America", "country": "United States of America", "latitude": "25.8576", "longitude": "-80.27811", "geonameid": "4158476"},
{"city": "Hollywood", "region": "Florida", "country_en": "United States of America", "country": "United States of America", "latitude": "26.0112", "longitude": "-80.14949", "geonameid": "4158928"},
{"city": "Homestead", "region": "Florida", "country_en": "United States of America", "country": "United States of America", "latitude": "25.46872", "longitude": "-80.47756", "geonameid": "4159050"},
{"city": "Jacksonville", "region": "Florida", "country_en": "United States of America", "country": "United States of America", "latitude": "30.33218", "longitude": "-81.65565", "geonameid": "4160021"},
{"city": "Jupiter", "region": "Florida", "country_en": "United States of America", "country": "United States of America", "latitude": "26.93422", "longitude": "-80.09421", "geonameid": "4160610"},
{"city": "Kendale Lakes", "region": "Florida", "country_en": "United States of America", "country": "United States of America", "latitude": "25.70816", "longitude": "-80.407", "geonameid": "4160705"},
{"city": "Kendall", "region": "Florida", "country_en": "United States of America", "country": "United States of America", "latitude": "25.67927", "longitude": "-80.31727", "geonameid": "4160711"},
{"city": "Kissimmee", "region": "Florida", "country_en": "United States of America", "country": "United States of America", "latitude": "28.30468", "longitude": "-81.41667", "geonameid": "4160983"},
{"city": "Lakeland", "region": "Florida", "country_en": "United States of America", "country": "United States of America", "latitude": "28.03947", "longitude": "-81.9498", "geonameid": "4161438"},
{"city": "Largo", "region": "Florida", "country_en": "United States of America", "country": "United States of America", "latitude": "27.90979", "longitude": "-82.78842", "geonameid": "4161580"},
{"city": "Lauderhill", "region": "Florida", "country_en": "United States of America", "country": "United States of America", "latitude": "26.14036", "longitude": "-80.21338", "geonameid": "4161625"},
{"city": "Lehigh Acres", "region": "Florida", "country_en": "United States of America", "country": "United States of America", "latitude": "26.62535", "longitude": "-81.6248", "geonameid": "4161785"},
{"city": "Margate", "region": "Florida", "country_en": "United States of America", "country": "United States of America", "latitude": "26.24453", "longitude": "-80.20644", "geonameid": "4163407"},
{"city": "Melbourne", "region": "Florida", "country_en": "United States of America", "country": "United States of America", "latitude": "28.08363", "longitude": "-80.60811", "geonameid": "4163971"},
{"city": "Miami", "region": "Florida", "country_en": "United States of America", "country": "United States of America", "latitude": "25.77427", "longitude": "-80.19366", "geonameid": "4164138"},
{"city": "Miami Beach", "region": "Florida", "country_en": "United States of America", "country": "United States of America", "latitude": "25.79065", "longitude": "-80.13005", "geonameid": "4164143"},
{"city": "Miami Gardens", "region": "Florida", "country_en": "United States of America", "country": "United States of America", "latitude": "25.94204", "longitude": "-80.2456", "geonameid": "4164167"},
{"city": "Miramar", "region": "Florida", "country_en": "United States of America", "country": "United States of America", "latitude": "25.98731", "longitude": "-80.23227", "geonameid": "4164601"},
{"city": "North Miami", "region": "Florida", "country_en": "United States of America", "country": "United States of America", "latitude": "25.89009", "longitude": "-80.18671", "geonameid": "4166232"},
{"city": "North Port", "region": "Florida", "country_en": "United States of America", "country": "United States of America", "latitude": "27.04422", "longitude": "-82.23593", "geonameid": "4166274"},
{"city": "Ocala", "region": "Florida", "country_en": "United States of America", "country": "United States of America", "latitude": "29.1872", "longitude": "-82.14009", "geonameid": "4166673"},
{"city": "Orlando", "region": "Florida", "country_en": "United States of America", "country": "United States of America", "latitude": "28.53834", "longitude": "-81.37924", "geonameid": "4167147"},
{"city": "Palm Bay", "region": "Florida", "country_en": "United States of America", "country": "United States of America", "latitude": "28.03446", "longitude": "-80.58866", "geonameid": "4167499"},
{"city": "Palm Beach Gardens", "region": "Florida", "country_en": "United States of America", "country": "United States of America", "latitude": "26.82339", "longitude": "-80.13865", "geonameid": "4167519"},
{"city": "Palm Coast", "region": "Florida", "country_en": "United States of America", "country": "United States of America", "latitude": "29.58497", "longitude": "-81.20784", "geonameid": "4167538"},
{"city": "Palm Harbor", "region": "Florida", "country_en": "United States of America", "country": "United States of America", "latitude": "28.07807", "longitude": "-82.76371", "geonameid": "4167545"},
{"city": "Pembroke Pines", "region": "Florida", "country_en": "United States of America", "country": "United States of America", "latitude": "26.00315", "longitude": "-80.22394", "geonameid": "4168139"},
{"city": "Pensacola", "region": "Florida", "country_en": "United States of America", "country": "United States of America", "latitude": "30.42131", "longitude": "-87.21691", "geonameid": "4168228"},
{"city": "Pine Hills", "region": "Florida", "country_en": "United States of America", "country": "United States of America", "latitude": "28.55778", "longitude": "-81.4534", "geonameid": "4168459"},
{"city": "Pinellas Park", "region": "Florida", "country_en": "United States of America", "country": "United States of America", "latitude": "27.8428", "longitude": "-82.69954", "geonameid": "4168630"},
{"city": "Plantation", "region": "Florida", "country_en": "United States of America", "country": "United States of America", "latitude": "26.13421", "longitude": "-80.23184", "geonameid": "4168782"},
{"city": "Poinciana", "region": "Florida", "country_en": "United States of America", "country": "United States of America", "latitude": "28.14029", "longitude": "-81.45841", "geonameid": "4168930"},
{"city": "Pompano Beach", "region": "Florida", "country_en": "United States of America", "country": "United States of America", "latitude": "26.23786", "longitude": "-80.12477", "geonameid": "4169014"},
{"city": "Port Charlotte", "region": "Florida", "country_en": "United States of America", "country": "United States of America", "latitude": "26.97617", "longitude": "-82.09064", "geonameid": "4169130"},
{"city": "Port Orange", "region": "Florida", "country_en": "United States of America", "country": "United States of America", "latitude": "29.13832", "longitude": "-80.99561", "geonameid": "4169156"},
{"city": "Port Saint Lucie", "region": "Florida", "country_en": "United States of America", "country": "United States of America", "latitude": "27.29393", "longitude": "-80.35033", "geonameid": "4169171"},
{"city": "Riverview", "region": "Florida", "country_en": "United States of America", "country": "United States of America", "latitude": "27.86614", "longitude": "-82.32648", "geonameid": "4170156"},
{"city": "St. Petersburg", "region": "Florida", "country_en": "United States of America", "country": "United States of America", "latitude": "27.77086", "longitude": "-82.67927", "geonameid": "4171563"},
{"city": "Sanford", "region": "Florida", "country_en": "United States of America", "country": "United States of America", "latitude": "28.80055", "longitude": "-81.27312", "geonameid": "4172086"},
{"city": "Sarasota", "region": "Florida", "country_en": "United States of America", "country": "United States of America", "latitude": "27.33643", "longitude": "-82.53065", "geonameid": "4172131"},
{"city": "Spring Hill", "region": "Florida", "country_en": "United States of America", "country": "United States of America", "latitude": "28.47688", "longitude": "-82.52546", "geonameid": "4173838"},
{"city": "Sunrise", "region": "Florida", "country_en": "United States of America", "country": "United States of America", "latitude": "26.13397", "longitude": "-80.1131", "geonameid": "4174402"},
{"city": "Tallahassee", "region": "Florida", "country_en": "United States of America", "country": "United States of America", "latitude": "30.43826", "longitude": "-84.28073", "geonameid": "4174715"},
{"city": "Tamarac", "region": "Florida", "country_en": "United States of America", "country": "United States of America", "latitude": "26.21286", "longitude": "-80.24977", "geonameid": "4174738"},
{"city": "Tamiami", "region": "Florida", "country_en": "United States of America", "country": "United States of America", "latitude": "25.75871", "longitude": "-80.39839", "geonameid": "4174744"},
{"city": "Tampa", "region": "Florida", "country_en": "United States of America", "country": "United States of America", "latitude": "27.94752", "longitude": "-82.45843", "geonameid": "4174757"},
{"city": "The Hammocks", "region": "Florida", "country_en": "United States of America", "country": "United States of America", "latitude": "25.67149", "longitude": "-80.4445", "geonameid": "4175117"},
{"city": "The Villages", "region": "Florida", "country_en": "United States of America", "country": "United States of America", "latitude": "28.93408", "longitude": "-81.95994", "geonameid": "4175179"},
{"city": "Town 'n' Country", "region": "Florida", "country_en": "United States of America", "country": "United States of America", "latitude": "28.01057", "longitude": "-82.57732", "geonameid": "4175538"},
{"city": "Wellington", "region": "Florida", "country_en": "United States of America", "country": "United States of America", "latitude": "26.65868", "longitude": "-80.24144", "geonameid": "4177703"},
{"city": "West Hollywood", "region": "Florida", "country_en": "United States of America", "country": "United States of America", "latitude": "26.02065", "longitude": "-80.18394", "geonameid": "4177834"},
{"city": "West Palm Beach", "region": "Florida", "country_en": "United States of America", "country": "United States of America", "latitude": "26.71534", "longitude": "-80.05337", "geonameid": "4177887"},
{"city": "Weston", "region": "Florida", "country_en": "United States of America", "country": "United States of America", "latitude": "26.10037", "longitude": "-80.39977", "geonameid": "4178003"},
{"city": "Albany", "region": "Georgia", "country_en": "United States of America", "country": "United States of America", "latitude": "31.57851", "longitude": "-84.15574", "geonameid": "4179320"},
{"city": "Alpharetta", "region": "Georgia", "country_en": "United States of America", "country": "United States of America", "latitude": "34.07538", "longitude": "-84.29409", "geonameid": "4179574"},
{"city": "Athens", "region": "Georgia", "country_en": "United States of America", "country": "United States of America", "latitude": "33.96095", "longitude": "-83.37794", "geonameid": "4180386"},
{"city": "Atlanta", "region": "Georgia", "country_en": "United States of America", "country": "United States of America", "latitude": "33.749", "longitude": "-84.38798", "geonameid": "4180439"},
{"city": "Brookhaven", "region": "Georgia", "country_en": "United States of America", "country": "United States of America", "latitude": "33.85844", "longitude": "-84.3402", "geonameid": "4184530"},
{"city": "Columbus", "region": "Georgia", "country_en": "United States of America", "country": "United States of America", "latitude": "32.46098", "longitude": "-84.98771", "geonameid": "4188985"},
{"city": "Macon", "region": "Georgia", "country_en": "United States of America", "country": "United States of America", "latitude": "32.84069", "longitude": "-83.6324", "geonameid": "4207400"},
{"city": "Marietta", "region": "Georgia", "country_en": "United States of America", "country": "United States of America", "latitude": "33.9526", "longitude": "-84.54993", "geonameid": "4207783"},
{"city": "Roswell", "region": "Georgia", "country_en": "United States of America", "country": "United States of America", "latitude": "34.02316", "longitude": "-84.36159", "geonameid": "4219934"},
{"city": "Sandy Springs", "region": "Georgia", "country_en": "United States of America", "country": "United States of America", "latitude": "33.92427", "longitude": "-84.37854", "geonameid": "4221333"},
{"city": "Savannah", "region": "Georgia", "country_en": "United States of America", "country": "United States of America", "latitude": "32.08354", "longitude": "-81.09983", "geonameid": "4221552"},
{"city": "Smyrna", "region": "Georgia", "country_en": "United States of America", "country": "United States of America", "latitude": "33.88399", "longitude": "-84.51438", "geonameid": "4223379"},
{"city": "Valdosta", "region": "Georgia", "country_en": "United States of America", "country": "United States of America", "latitude": "30.83334", "longitude": "-83.28032", "geonameid": "4228147"},
{"city": "Warner Robins", "region": "Georgia", "country_en": "United States of America", "country": "United States of America", "latitude": "32.61574", "longitude": "-83.62664", "geonameid": "4229476"},
{"city": "Decatur", "region": "Illinois", "country_en": "United States of America", "country": "United States of America", "latitude": "39.84031", "longitude": "-88.9548", "geonameid": "4236895"},
{"city": "Springfield", "region": "Illinois", "country_en": "United States of America", "country": "United States of America", "latitude": "39.80172", "longitude": "-89.64371", "geonameid": "4250542"},
{"city": "Bloomington", "region": "Indiana", "country_en": "United States of America", "country": "United States of America", "latitude": "39.16533", "longitude": "-86.52639", "geonameid": "4254679"},
{"city": "Carmel", "region": "Indiana", "country_en": "United States of America", "country": "United States of America", "latitude": "39.97837", "longitude": "-86.11804", "geonameid": "4255466"},
{"city": "Evansville", "region": "Indiana", "country_en": "United States of America", "country": "United States of America", "latitude": "37.97476", "longitude": "-87.55585", "geonameid": "4257227"},
{"city": "Fishers", "region": "Indiana", "country_en": "United States of America", "country": "United States of America", "latitude": "39.95559", "longitude": "-86.01387", "geonameid": "4257494"},
{"city": "Greenwood", "region": "Indiana", "country_en": "United States of America", "country": "United States of America", "latitude": "39.61366", "longitude": "-86.10665", "geonameid": "4258313"},
{"city": "Indianapolis", "region": "Indiana", "country_en": "United States of America", "country": "United States of America", "latitude": "39.76838", "longitude": "-86.15804", "geonameid": "4259418"},
{"city": "Terre Haute", "region": "Indiana", "country_en": "United States of America", "country": "United States of America", "latitude": "39.4667", "longitude": "-87.41391", "geonameid": "4265737"},
{"city": "Kansas City", "region": "Kansas", "country_en": "United States of America", "country": "United States of America", "latitude": "39.11417", "longitude": "-94.62746", "geonameid": "4273837"},
{"city": "Lawrence", "region": "Kansas", "country_en": "United States of America", "country": "United States of America", "latitude": "38.97167", "longitude": "-95.23525", "geonameid": "4274277"},
{"city": "Lenexa", "region": "Kansas", "country_en": "United States of America", "country": "United States of America", "latitude": "38.95362", "longitude": "-94.73357", "geonameid": "4274356"},
{"city": "Manhattan", "region": "Kansas", "country_en": "United States of America", "country": "United States of America", "latitude": "39.18361", "longitude": "-96.57167", "geonameid": "4274994"},
{"city": "Olathe", "region": "Kansas", "country_en": "United States of America", "country": "United States of America", "latitude": "38.8814", "longitude": "-94.81913", "geonameid": "4276614"},
{"city": "Overland Park", "region": "Kansas", "country_en": "United States of America", "country": "United States of America", "latitude": "38.98223", "longitude": "-94.67079", "geonameid": "4276873"},
{"city": "Shawnee", "region": "Kansas", "country_en": "United States of America", "country": "United States of America", "latitude": "39.04167", "longitude": "-94.72024", "geonameid": "4279247"},
{"city": "Topeka", "region": "Kansas", "country_en": "United States of America", "country": "United States of America", "latitude": "39.04833", "longitude": "-95.67804", "geonameid": "4280539"},
{"city": "Wichita", "region": "Kansas", "country_en": "United States of America", "country": "United States of America", "latitude": "37.69224", "longitude": "-97.33754", "geonameid": "4281730"},
{"city": "Bowling Green", "region": "Kentucky", "country_en": "United States of America", "country": "United States of America", "latitude": "36.99032", "longitude": "-86.4436", "geonameid": "4285268"},
{"city": "Ironville", "region": "Kentucky", "country_en": "United States of America", "country": "United States of America", "latitude": "38.45647", "longitude": "-82.69238", "geonameid": "4295940"},
{"city": "Lexington", "region": "Kentucky", "country_en": "United States of America", "country": "United States of America", "latitude": "37.98869", "longitude": "-84.47772", "geonameid": "4297983"},
{"city": "Lexington-Fayette", "region": "Kentucky", "country_en": "United States of America", "country": "United States of America", "latitude": "38.0498", "longitude": "-84.45855", "geonameid": "4297999"},
{"city": "Louisville", "region": "Kentucky", "country_en": "United States of America", "country": "United States of America", "latitude": "38.25424", "longitude": "-85.75941", "geonameid": "4299276"},
{"city": "Meads", "region": "Kentucky", "country_en": "United States of America", "country": "United States of America", "latitude": "38.41258", "longitude": "-82.70905", "geonameid": "4300488"},
{"city": "Owensboro", "region": "Kentucky", "country_en": "United States of America", "country": "United States of America", "latitude": "37.77422", "longitude": "-87.11333", "geonameid": "4303436"},
{"city": "Baton Rouge", "region": "Louisiana", "country_en": "United States of America", "country": "United States of America", "latitude": "30.44332", "longitude": "-91.18747", "geonameid": "4315588"},
{"city": "Bossier City", "region": "Louisiana", "country_en": "United States of America", "country": "United States of America", "latitude": "32.51599", "longitude": "-93.73212", "geonameid": "4317639"},
{"city": "Kenner", "region": "Louisiana", "country_en": "United States of America", "country": "United States of America", "latitude": "29.99409", "longitude": "-90.24174", "geonameid": "4329753"},
{"city": "Lafayette", "region": "Louisiana", "country_en": "United States of America", "country": "United States of America", "latitude": "30.22409", "longitude": "-92.01984", "geonameid": "4330145"},
{"city": "Lake Charles", "region": "Louisiana", "country_en": "United States of America", "country": "United States of America", "latitude": "30.21309", "longitude": "-93.2044", "geonameid": "4330236"},
{"city": "Metairie", "region": "Louisiana", "country_en": "United States of America", "country": "United States of America", "latitude": "29.98409", "longitude": "-90.15285", "geonameid": "4333177"},
{"city": "Metairie Terrace", "region": "Louisiana", "country_en": "United States of America", "country": "United States of America", "latitude": "29.97854", "longitude": "-90.16396", "geonameid": "4333190"},
{"city": "New Orleans", "region": "Louisiana", "country_en": "United States of America", "country": "United States of America", "latitude": "29.95465", "longitude": "-90.07507", "geonameid": "4335045"},
{"city": "Shreveport", "region": "Louisiana", "country_en": "United States of America", "country": "United States of America", "latitude": "32.52515", "longitude": "-93.75018", "geonameid": "4341513"},
{"city": "Baltimore", "region": "Maryland", "country_en": "United States of America", "country": "United States of America", "latitude": "39.29038", "longitude": "-76.61219", "geonameid": "4347778"},
{"city": "Bethesda", "region": "Maryland", "country_en": "United States of America", "country": "United States of America", "latitude": "38.98067", "longitude": "-77.10026", "geonameid": "4348599"},
{"city": "Bowie", "region": "Maryland", "country_en": "United States of America", "country": "United States of America", "latitude": "38.94278", "longitude": "-76.73028", "geonameid": "4349159"},
{"city": "Columbia", "region": "Maryland", "country_en": "United States of America", "country": "United States of America", "latitude": "39.24038", "longitude": "-76.83942", "geonameid": "4352053"},
{"city": "Dundalk", "region": "Maryland", "country_en": "United States of America", "country": "United States of America", "latitude": "39.25066", "longitude": "-76.52052", "geonameid": "4353765"},
{"city": "Ellicott City", "region": "Maryland", "country_en": "United States of America", "country": "United States of America", "latitude": "39.26733", "longitude": "-76.79831", "geonameid": "4354265"},
{"city": "Frederick", "region": "Maryland", "country_en": "United States of America", "country": "United States of America", "latitude": "39.41427", "longitude": "-77.41054", "geonameid": "4355585"},
{"city": "Gaithersburg", "region": "Maryland", "country_en": "United States of America", "country": "United States of America", "latitude": "39.14344", "longitude": "-77.20137", "geonameid": "4355843"},
{"city": "Germantown", "region": "Maryland", "country_en": "United States of America", "country": "United States of America", "latitude": "39.17316", "longitude": "-77.27165", "geonameid": "4356050"},
{"city": "Glen Burnie", "region": "Maryland", "country_en": "United States of America", "country": "United States of America", "latitude": "39.16261", "longitude": "-76.62469", "geonameid": "4356188"},
{"city": "Rockville", "region": "Maryland", "country_en": "United States of America", "country": "United States of America", "latitude": "39.084", "longitude": "-77.15276", "geonameid": "4367175"},
{"city": "Silver Spring", "region": "Maryland", "country_en": "United States of America", "country": "United States of America", "latitude": "38.99067", "longitude": "-77.02609", "geonameid": "4369596"},
{"city": "Towson", "region": "Maryland", "country_en": "United States of America", "country": "United States of America", "latitude": "39.4015", "longitude": "-76.60191", "geonameid": "4371582"},
{"city": "Waldorf", "region": "Maryland", "country_en": "United States of America", "country": "United States of America", "latitude": "38.62456", "longitude": "-76.93914", "geonameid": "4372599"},
{"city": "Blue Springs", "region": "Missouri", "country_en": "United States of America", "country": "United States of America", "latitude": "39.01695", "longitude": "-94.28161", "geonameid": "4377664"},
{"city": "Columbia", "region": "Missouri", "country_en": "United States of America", "country": "United States of America", "latitude": "38.95171", "longitude": "-92.33407", "geonameid": "4381982"},
{"city": "East Independence", "region": "Missouri", "country_en": "United States of America", "country": "United States of America", "latitude": "39.09556", "longitude": "-94.35523", "geonameid": "4385018"},
{"city": "Florissant", "region": "Missouri", "country_en": "United States of America", "country": "United States of America", "latitude": "38.78922", "longitude": "-90.32261", "geonameid": "4386802"},
{"city": "Independence", "region": "Missouri", "country_en": "United States of America", "country": "United States of America", "latitude": "39.09112", "longitude": "-94.41551", "geonameid": "4391812"},
{"city": "Joplin", "region": "Missouri", "country_en": "United States of America", "country": "United States of America", "latitude": "37.08423", "longitude": "-94.51328", "geonameid": "4392768"},
{"city": "Kansas City", "region": "Missouri", "country_en": "United States of America", "country": "United States of America", "latitude": "39.09973", "longitude": "-94.57857", "geonameid": "4393217"},
{"city": "Lee's Summit", "region": "Missouri", "country_en": "United States of America", "country": "United States of America", "latitude": "38.91084", "longitude": "-94.38217", "geonameid": "4394870"},
{"city": "O'Fallon", "region": "Missouri", "country_en": "United States of America", "country": "United States of America", "latitude": "38.81061", "longitude": "-90.69985", "geonameid": "4401242"},
{"city": "Saint Charles", "region": "Missouri", "country_en": "United States of America", "country": "United States of America", "latitude": "38.78394", "longitude": "-90.48123", "geonameid": "4406831"},
{"city": "Saint Joseph", "region": "Missouri", "country_en": "United States of America", "country": "United States of America", "latitude": "39.76861", "longitude": "-94.84663", "geonameid": "4407010"},
{"city": "St. Louis", "region": "Missouri", "country_en": "United States of America", "country": "United States of America", "latitude": "38.62727", "longitude": "-90.19789", "geonameid": "4407066"},
{"city": "Saint Peters", "region": "Missouri", "country_en": "United States of America", "country": "United States of America", "latitude": "38.80033", "longitude": "-90.62651", "geonameid": "4407237"},
{"city": "Springfield", "region": "Missouri", "country_en": "United States of America", "country": "United States of America", "latitude": "37.21533", "longitude": "-93.29824", "geonameid": "4409896"},
{"city": "Gulfport", "region": "Mississippi", "country_en": "United States of America", "country": "United States of America", "latitude": "30.36742", "longitude": "-89.09282", "geonameid": "4428667"},
{"city": "Jackson", "region": "Mississippi", "country_en": "United States of America", "country": "United States of America", "latitude": "32.29876", "longitude": "-90.18481", "geonameid": "4431410"},
{"city": "Southaven", "region": "Mississippi", "country_en": "United States of America", "country": "United States of America", "latitude": "34.98898", "longitude": "-90.01259", "geonameid": "4446675"},
{"city": "West Gulfport", "region": "Mississippi", "country_en": "United States of America", "country": "United States of America", "latitude": "30.40409", "longitude": "-89.0942", "geonameid": "4450687"},
{"city": "Asheville", "region": "North Carolina", "country_en": "United States of America", "country": "United States of America", "latitude": "35.60095", "longitude": "-82.55402", "geonameid": "4453066"},
{"city": "Burlington", "region": "North Carolina", "country_en": "United States of America", "country": "United States of America", "latitude": "36.09569", "longitude": "-79.4378", "geonameid": "4458228"},
{"city": "Cary", "region": "North Carolina", "country_en": "United States of America", "country": "United States of America", "latitude": "35.79154", "longitude": "-78.78112", "geonameid": "4459467"},
{"city": "Chapel Hill", "region": "North Carolina", "country_en": "United States of America", "country": "United States of America", "latitude": "35.9132", "longitude": "-79.05584", "geonameid": "4460162"},
{"city": "Charlotte", "region": "North Carolina", "country_en": "United States of America", "country": "United States of America", "latitude": "35.22709", "longitude": "-80.84313", "geonameid": "4460243"},
{"city": "Concord", "region": "North Carolina", "country_en": "United States of America", "country": "United States of America", "latitude": "35.40888", "longitude": "-80.58158", "geonameid": "4461574"},
{"city": "Durham", "region": "North Carolina", "country_en": "United States of America", "country": "United States of America", "latitude": "35.99403", "longitude": "-78.89862", "geonameid": "4464368"},
{"city": "Fayetteville", "region": "North Carolina", "country_en": "United States of America", "country": "United States of America", "latitude": "35.05266", "longitude": "-78.87836", "geonameid": "4466033"},
{"city": "Gastonia", "region": "North Carolina", "country_en": "United States of America", "country": "United States of America", "latitude": "35.26208", "longitude": "-81.1873", "geonameid": "4467732"},
{"city": "Greensboro", "region": "North Carolina", "country_en": "United States of America", "country": "United States of America", "latitude": "36.07264", "longitude": "-79.79198", "geonameid": "4469146"},
{"city": "Greenville", "region": "North Carolina", "country_en": "United States of America", "country": "United States of America", "latitude": "35.61266", "longitude": "-77.36635", "geonameid": "4469160"},
{"city": "High Point", "region": "North Carolina", "country_en": "United States of America", "country": "United States of America", "latitude": "35.95569", "longitude": "-80.00532", "geonameid": "4471025"},
{"city": "Huntersville", "region": "North Carolina", "country_en": "United States of America", "country": "United States of America", "latitude": "35.41069", "longitude": "-80.84285", "geonameid": "4472370"},
{"city": "Jacksonville", "region": "North Carolina", "country_en": "United States of America", "country": "United States of America", "latitude": "34.75405", "longitude": "-77.43024", "geonameid": "4473083"},
{"city": "Raleigh", "region": "North Carolina", "country_en": "United States of America", "country": "United States of America", "latitude": "35.7721", "longitude": "-78.63861", "geonameid": "4487042"},
{"city": "Rocky Mount", "region": "North Carolina", "country_en": "United States of America", "country": "United States of America", "latitude": "35.93821", "longitude": "-77.79053", "geonameid": "4488762"},
{"city": "West Raleigh", "region": "North Carolina", "country_en": "United States of America", "country": "United States of America", "latitude": "35.78682", "longitude": "-78.66389", "geonameid": "4498303"},
{"city": "Wilmington", "region": "North Carolina", "country_en": "United States of America", "country": "United States of America", "latitude": "34.22573", "longitude": "-77.94471", "geonameid": "4499379"},
{"city": "Winston-Salem", "region": "North Carolina", "country_en": "United States of America", "country": "United States of America", "latitude": "36.09986", "longitude": "-80.24422", "geonameid": "4499612"},
{"city": "Camden", "region": "New Jersey", "country_en": "United States of America", "country": "United States of America", "latitude": "39.92595", "longitude": "-75.11962", "geonameid": "4501018"},
{"city": "Cherry Hill", "region": "New Jersey", "country_en": "United States of America", "country": "United States of America", "latitude": "39.93484", "longitude": "-75.03073", "geonameid": "4501198"},
{"city": "Jackson", "region": "New Jersey", "country_en": "United States of America", "country": "United States of America", "latitude": "39.7765", "longitude": "-74.86238", "geonameid": "4502434"},
{"city": "South Vineland", "region": "New Jersey", "country_en": "United States of America", "country": "United States of America", "latitude": "39.44595", "longitude": "-75.02879", "geonameid": "4504225"},
{"city": "Toms River", "region": "New Jersey", "country_en": "United States of America", "country": "United States of America", "latitude": "39.95373", "longitude": "-74.19792", "geonameid": "4504476"},
{"city": "Vineland", "region": "New Jersey", "country_en": "United States of America", "country": "United States of America", "latitude": "39.48623", "longitude": "-75.02573", "geonameid": "4504621"},
{"city": "Cincinnati", "region": "Ohio", "country_en": "United States of America", "country": "United States of America", "latitude": "39.12711", "longitude": "-84.51439", "geonameid": "4508722"},
{"city": "Columbus", "region": "Ohio", "country_en": "United States of America", "country": "United States of America", "latitude": "39.96118", "longitude": "-82.99879", "geonameid": "4509177"},
{"city": "Dayton", "region": "Ohio", "country_en": "United States of America", "country": "United States of America", "latitude": "39.75895", "longitude": "-84.19161", "geonameid": "4509884"},
{"city": "Hamilton", "region": "Ohio", "country_en": "United States of America", "country": "United States of America", "latitude": "39.3995", "longitude": "-84.56134", "geonameid": "4513575"},
{"city": "Kettering", "region": "Ohio", "country_en": "United States of America", "country": "United States of America", "latitude": "39.6895", "longitude": "-84.16883", "geonameid": "4515843"},
{"city": "Springfield", "region": "Ohio", "country_en": "United States of America", "country": "United States of America", "latitude": "39.92423", "longitude": "-83.80882", "geonameid": "4525353"},
{"city": "Broken Arrow", "region": "Oklahoma", "country_en": "United States of America", "country": "United States of America", "latitude": "36.0526", "longitude": "-95.79082", "geonameid": "4531405"},
{"city": "Edmond", "region": "Oklahoma", "country_en": "United States of America", "country": "United States of America", "latitude": "35.65283", "longitude": "-97.4781", "geonameid": "4535740"},
{"city": "Enid", "region": "Oklahoma", "country_en": "United States of America", "country": "United States of America", "latitude": "36.39559", "longitude": "-97.87839", "geonameid": "4535961"},
{"city": "Lawton", "region": "Oklahoma", "country_en": "United States of America", "country": "United States of America", "latitude": "34.60869", "longitude": "-98.39033", "geonameid": "4540737"},
{"city": "Midwest City", "region": "Oklahoma", "country_en": "United States of America", "country": "United States of America", "latitude": "35.44951", "longitude": "-97.3967", "geonameid": "4542765"},
{"city": "Moore", "region": "Oklahoma", "country_en": "United States of America", "country": "United States of America", "latitude": "35.33951", "longitude": "-97.4867", "geonameid": "4542975"},
{"city": "Norman", "region": "Oklahoma", "country_en": "United States of America", "country": "United States of America", "latitude": "35.22257", "longitude": "-97.43948", "geonameid": "4543762"},
{"city": "Oklahoma City", "region": "Oklahoma", "country_en": "United States of America", "country": "United States of America", "latitude": "35.46756", "longitude": "-97.51643", "geonameid": "4544349"},
{"city": "Tulsa", "region": "Oklahoma", "country_en": "United States of America", "country": "United States of America", "latitude": "36.15398", "longitude": "-95.99277", "geonameid": "4553433"},
{"city": "Philadelphia", "region": "Pennsylvania", "country_en": "United States of America", "country": "United States of America", "latitude": "39.95238", "longitude": "-75.16362", "geonameid": "4560349"},
{"city": "Charleston", "region": "South Carolina", "country_en": "United States of America", "country": "United States of America", "latitude": "32.77657", "longitude": "-79.93092", "geonameid": "4574324"},
{"city": "Columbia", "region": "South Carolina", "country_en": "United States of America", "country": "United States of America", "latitude": "34.00071", "longitude": "-81.03481", "geonameid": "4575352"},
{"city": "Greenville", "region": "South Carolina", "country_en": "United States of America", "country": "United States of America", "latitude": "34.85262", "longitude": "-82.39401", "geonameid": "4580543"},
{"city": "Mount Pleasant", "region": "South Carolina", "country_en": "United States of America", "country": "United States of America", "latitude": "32.79407", "longitude": "-79.86259", "geonameid": "4588165"},
{"city": "North Charleston", "region": "South Carolina", "country_en": "United States of America", "country": "United States of America", "latitude": "32.85462", "longitude": "-79.97481", "geonameid": "4589387"},
{"city": "Rock Hill", "region": "South Carolina", "country_en": "United States of America", "country": "United States of America", "latitude": "34.92487", "longitude": "-81.02508", "geonameid": "4593142"},
{"city": "Bartlett", "region": "Tennessee", "country_en": "United States of America", "country": "United States of America", "latitude": "35.20453", "longitude": "-89.87398", "geonameid": "4604183"},
{"city": "Chattanooga", "region": "Tennessee", "country_en": "United States of America", "country": "United States of America", "latitude": "35.04563", "longitude": "-85.30968", "geonameid": "4612862"},
{"city": "Clarksville", "region": "Tennessee", "country_en": "United States of America", "country": "United States of America", "latitude": "36.52977", "longitude": "-87.35945", "geonameid": "4613868"},
{"city": "East Chattanooga", "region": "Tennessee", "country_en": "United States of America", "country": "United States of America", "latitude": "35.06535", "longitude": "-85.24912", "geonameid": "4619947"},
{"city": "Franklin", "region": "Tennessee", "country_en": "United States of America", "country": "United States of America", "latitude": "35.92506", "longitude": "-86.86889", "geonameid": "4623560"},
{"city": "Hendersonville", "region": "Tennessee", "country_en": "United States of America", "country": "United States of America", "latitude": "36.30477", "longitude": "-86.62", "geonameid": "4628735"},
{"city": "Jackson", "region": "Tennessee", "country_en": "United States of America", "country": "United States of America", "latitude": "35.61452", "longitude": "-88.81395", "geonameid": "4632595"},
{"city": "Johnson City", "region": "Tennessee", "country_en": "United States of America", "country": "United States of America", "latitude": "36.31344", "longitude": "-82.35347", "geonameid": "4633419"},
{"city": "Kingsport", "region": "Tennessee", "country_en": "United States of America", "country": "United States of America", "latitude": "36.54843", "longitude": "-82.56182", "geonameid": "4634662"},
{"city": "Knoxville", "region": "Tennessee", "country_en": "United States of America", "country": "United States of America", "latitude": "35.96064", "longitude": "-83.92074", "geonameid": "4634946"},
{"city": "Memphis", "region": "Tennessee", "country_en": "United States of America", "country": "United States of America", "latitude": "35.14953", "longitude": "-90.04898", "geonameid": "4641239"},
{"city": "Murfreesboro", "region": "Tennessee", "country_en": "United States of America", "country": "United States of America", "latitude": "35.84562", "longitude": "-86.39027", "geonameid": "4644312"},
{"city": "Nashville", "region": "Tennessee", "country_en": "United States of America", "country": "United States of America", "latitude": "36.16589", "longitude": "-86.78444", "geonameid": "4644585"},
{"city": "New South Memphis", "region": "Tennessee", "country_en": "United States of America", "country": "United States of America", "latitude": "35.08676", "longitude": "-90.05676", "geonameid": "4645421"},
{"city": "Abilene", "region": "Texas", "country_en": "United States of America", "country": "United States of America", "latitude": "32.44874", "longitude": "-99.73314", "geonameid": "4669635"},
{"city": "Alief", "region": "Texas", "country_en": "United States of America", "country": "United States of America", "latitude": "29.71106", "longitude": "-95.59633", "geonameid": "4670249"},
{"city": "Allen", "region": "Texas", "country_en": "United States of America", "country": "United States of America", "latitude": "33.10317", "longitude": "-96.67055", "geonameid": "4670300"},
{"city": "Arlington", "region": "Texas", "country_en": "United States of America", "country": "United States of America", "latitude": "32.73569", "longitude": "-97.10807", "geonameid": "4671240"},
{"city": "Atascocita", "region": "Texas", "country_en": "United States of America", "country": "United States of America", "latitude": "29.99883", "longitude": "-95.1766", "geonameid": "4671524"},
{"city": "Austin", "region": "Texas", "country_en": "United States of America", "country": "United States of America", "latitude": "30.26715", "longitude": "-97.74306", "geonameid": "4671654"},
{"city": "Baytown", "region": "Texas", "country_en": "United States of America", "country": "United States of America", "latitude": "29.7355", "longitude": "-94.97743", "geonameid": "4672731"},
{"city": "Beaumont", "region": "Texas", "country_en": "United States of America", "country": "United States of America", "latitude": "30.08605", "longitude": "-94.10185", "geonameid": "4672989"},
{"city": "Brownsville", "region": "Texas", "country_en": "United States of America", "country": "United States of America", "latitude": "25.90175", "longitude": "-97.49748", "geonameid": "4676740"},
{"city": "Bryan", "region": "Texas", "country_en": "United States of America", "country": "United States of America", "latitude": "30.67436", "longitude": "-96.36996", "geonameid": "4677008"},
{"city": "Carrollton", "region": "Texas", "country_en": "United States of America", "country": "United States of America", "latitude": "32.95373", "longitude": "-96.89028", "geonameid": "4679195"},
{"city": "Cedar Park", "region": "Texas", "country_en": "United States of America", "country": "United States of America", "latitude": "30.5052", "longitude": "-97.82029", "geonameid": "4679867"},
{"city": "College Station", "region": "Texas", "country_en": "United States of America", "country": "United States of America", "latitude": "30.62798", "longitude": "-96.33441", "geonameid": "4682464"},
{"city": "Conroe", "region": "Texas", "country_en": "United States of America", "country": "United States of America", "latitude": "30.31188", "longitude": "-95.45605", "geonameid": "4682991"},
{"city": "Corpus Christi", "region": "Texas", "country_en": "United States of America", "country": "United States of America", "latitude": "27.80058", "longitude": "-97.39638", "geonameid": "4683416"},
{"city": "Dallas", "region": "Texas", "country_en": "United States of America", "country": "United States of America", "latitude": "32.78306", "longitude": "-96.80667", "geonameid": "4684888"},
{"city": "DeSoto", "region": "Texas", "country_en": "United States of America", "country": "United States of America", "latitude": "32.58986", "longitude": "-96.85695", "geonameid": "4685524"},
{"city": "Denton", "region": "Texas", "country_en": "United States of America", "country": "United States of America", "latitude": "33.21484", "longitude": "-97.13307", "geonameid": "4685907"},
{"city": "Edinburg", "region": "Texas", "country_en": "United States of America", "country": "United States of America", "latitude": "26.30174", "longitude": "-98.16334", "geonameid": "4688275"},
{"city": "Euless", "region": "Texas", "country_en": "United States of America", "country": "United States of America", "latitude": "32.83707", "longitude": "-97.08195", "geonameid": "4689550"},
{"city": "Flower Mound", "region": "Texas", "country_en": "United States of America", "country": "United States of America", "latitude": "33.01457", "longitude": "-97.09696", "geonameid": "4691585"},
{"city": "Fort Worth", "region": "Texas", "country_en": "United States of America", "country": "United States of America", "latitude": "32.72541", "longitude": "-97.32085", "geonameid": "4691930"},
{"city": "Frisco", "region": "Texas", "country_en": "United States of America", "country": "United States of America", "latitude": "33.15067", "longitude": "-96.82361", "geonameid": "4692559"},
{"city": "Galveston", "region": "Texas", "country_en": "United States of America", "country": "United States of America", "latitude": "29.30135", "longitude": "-94.7977", "geonameid": "4692883"},
{"city": "Garland", "region": "Texas", "country_en": "United States of America", "country": "United States of America", "latitude": "32.91262", "longitude": "-96.63888", "geonameid": "4693003"},
{"city": "Georgetown", "region": "Texas", "country_en": "United States of America", "country": "United States of America", "latitude": "30.63269", "longitude": "-97.67723", "geonameid": "4693342"},
{"city": "Grand Prairie", "region": "Texas", "country_en": "United States of America", "country": "United States of America", "latitude": "32.74596", "longitude": "-96.99778", "geonameid": "4694482"},
{"city": "Grapevine", "region": "Texas", "country_en": "United States of America", "country": "United States of America", "latitude": "32.93429", "longitude": "-97.07807", "geonameid": "4694568"},
{"city": "Harlingen", "region": "Texas", "country_en": "United States of America", "country": "United States of America", "latitude": "26.19063", "longitude": "-97.6961", "geonameid": "4696233"},
{"city": "Houston", "region": "Texas", "country_en": "United States of America", "country": "United States of America", "latitude": "29.76328", "longitude": "-95.36327", "geonameid": "4699066"},
{"city": "Irving", "region": "Texas", "country_en": "United States of America", "country": "United States of America", "latitude": "32.81402", "longitude": "-96.94889", "geonameid": "4700168"},
{"city": "Killeen", "region": "Texas", "country_en": "United States of America", "country": "United States of America", "latitude": "31.11712", "longitude": "-97.7278", "geonameid": "4703223"},
{"city": "Laredo", "region": "Texas", "country_en": "United States of America", "country": "United States of America", "latitude": "27.50641", "longitude": "-99.50754", "geonameid": "4705349"},
{"city": "League City", "region": "Texas", "country_en": "United States of America", "country": "United States of America", "latitude": "29.50745", "longitude": "-95.09493", "geonameid": "4705692"},
{"city": "Lewisville", "region": "Texas", "country_en": "United States of America", "country": "United States of America", "latitude": "33.04623", "longitude": "-96.99417", "geonameid": "4706057"},
{"city": "Longview", "region": "Texas", "country_en": "United States of America", "country": "United States of America", "latitude": "32.5007", "longitude": "-94.74049", "geonameid": "4707814"},
{"city": "Mansfield", "region": "Texas", "country_en": "United States of America", "country": "United States of America", "latitude": "32.56319", "longitude": "-97.14168", "geonameid": "4709013"},
{"city": "McAllen", "region": "Texas", "country_en": "United States of America", "country": "United States of America", "latitude": "26.20341", "longitude": "-98.23001", "geonameid": "4709796"},
{"city": "McKinney", "region": "Texas", "country_en": "United States of America", "country": "United States of America", "latitude": "33.19762", "longitude": "-96.61527", "geonameid": "4710178"},
{"city": "Mesquite", "region": "Texas", "country_en": "United States of America", "country": "United States of America", "latitude": "32.7668", "longitude": "-96.59916", "geonameid": "4710826"},
{"city": "Mission", "region": "Texas", "country_en": "United States of America", "country": "United States of America", "latitude": "26.21591", "longitude": "-98.32529", "geonameid": "4711725"},
{"city": "Missouri City", "region": "Texas", "country_en": "United States of America", "country": "United States of America", "latitude": "29.61857", "longitude": "-95.53772", "geonameid": "4711801"},
{"city": "New Braunfels", "region": "Texas", "country_en": "United States of America", "country": "United States of America", "latitude": "29.703", "longitude": "-98.12445", "geonameid": "4714131"},
{"city": "North Richland Hills", "region": "Texas", "country_en": "United States of America", "country": "United States of America", "latitude": "32.8343", "longitude": "-97.2289", "geonameid": "4715292"},
{"city": "Pasadena", "region": "Texas", "country_en": "United States of America", "country": "United States of America", "latitude": "29.69106", "longitude": "-95.2091", "geonameid": "4717782"},
{"city": "Pearland", "region": "Texas", "country_en": "United States of America", "country": "United States of America", "latitude": "29.56357", "longitude": "-95.28605", "geonameid": "4718097"},
{"city": "Pflugerville", "region": "Texas", "country_en": "United States of America", "country": "United States of America", "latitude": "30.43937", "longitude": "-97.62", "geonameid": "4718711"},
{"city": "Pharr", "region": "Texas", "country_en": "United States of America", "country": "United States of America", "latitude": "26.1948", "longitude": "-98.18362", "geonameid": "4718721"},
{"city": "Plano", "region": "Texas", "country_en": "United States of America", "country": "United States of America", "latitude": "33.01984", "longitude": "-96.69889", "geonameid": "4719457"},
{"city": "Port Arthur", "region": "Texas", "country_en": "United States of America", "country": "United States of America", "latitude": "29.88519", "longitude": "-93.94233", "geonameid": "4720039"},
{"city": "Richardson", "region": "Texas", "country_en": "United States of America", "country": "United States of America", "latitude": "32.94818", "longitude": "-96.72972", "geonameid": "4722625"},
{"city": "Round Rock", "region": "Texas", "country_en": "United States of America", "country": "United States of America", "latitude": "30.50826", "longitude": "-97.6789", "geonameid": "4724129"},
{"city": "Rowlett", "region": "Texas", "country_en": "United States of America", "country": "United States of America", "latitude": "32.9029", "longitude": "-96.56388", "geonameid": "4724194"},
{"city": "San Antonio", "region": "Texas", "country_en": "United States of America", "country": "United States of America", "latitude": "29.42412", "longitude": "-98.49363", "geonameid": "4726206"},
{"city": "San Marcos", "region": "Texas", "country_en": "United States of America", "country": "United States of America", "latitude": "29.88327", "longitude": "-97.94139", "geonameid": "4726491"},
{"city": "Spring", "region": "Texas", "country_en": "United States of America", "country": "United States of America", "latitude": "30.07994", "longitude": "-95.41716", "geonameid": "4733624"},
{"city": "Sugar Land", "region": "Texas", "country_en": "United States of America", "country": "United States of America", "latitude": "29.61968", "longitude": "-95.63495", "geonameid": "4734825"},
{"city": "Temple", "region": "Texas", "country_en": "United States of America", "country": "United States of America", "latitude": "31.09823", "longitude": "-97.34278", "geonameid": "4735966"},
{"city": "The Woodlands", "region": "Texas", "country_en": "United States of America", "country": "United States of America", "latitude": "30.15799", "longitude": "-95.48938", "geonameid": "4736476"},
{"city": "Tyler", "region": "Texas", "country_en": "United States of America", "country": "United States of America", "latitude": "32.35126", "longitude": "-95.30106", "geonameid": "4738214"},
{"city": "Victoria", "region": "Texas", "country_en": "United States of America", "country": "United States of America", "latitude": "28.80527", "longitude": "-97.0036", "geonameid": "4739157"},
{"city": "Waco", "region": "Texas", "country_en": "United States of America", "country": "United States of America", "latitude": "31.54933", "longitude": "-97.14667", "geonameid": "4739526"},
{"city": "Wichita Falls", "region": "Texas", "country_en": "United States of America", "country": "United States of America", "latitude": "33.91371", "longitude": "-98.49339", "geonameid": "4741752"},
{"city": "Alexandria", "region": "Virginia", "country_en": "United States of America", "country": "United States of America", "latitude": "38.80484", "longitude": "-77.04692", "geonameid": "4744091"},
{"city": "Arlington", "region": "Virginia", "country_en": "United States of America", "country": "United States of America", "latitude": "38.88101", "longitude": "-77.10428", "geonameid": "4744709"},
{"city": "Centreville", "region": "Virginia", "country_en": "United States of America", "country": "United States of America", "latitude": "38.84039", "longitude": "-77.42888", "geonameid": "4751839"},
{"city": "Chesapeake", "region": "Virginia", "country_en": "United States of America", "country": "United States of America", "latitude": "36.81904", "longitude": "-76.27494", "geonameid": "4752186"},
{"city": "Dale City", "region": "Virginia", "country_en": "United States of America", "country": "United States of America", "latitude": "38.63706", "longitude": "-77.31109", "geonameid": "4755158"},
{"city": "East Hampton", "region": "Virginia", "country_en": "United States of America", "country": "United States of America", "latitude": "37.03737", "longitude": "-76.33161", "geonameid": "4756955"},
{"city": "Hampton", "region": "Virginia", "country_en": "United States of America", "country": "United States of America", "latitude": "37.02987", "longitude": "-76.34522", "geonameid": "4762894"},
{"city": "Harrisonburg", "region": "Virginia", "country_en": "United States of America", "country": "United States of America", "latitude": "38.44957", "longitude": "-78.86892", "geonameid": "4763231"},
{"city": "Leesburg", "region": "Virginia", "country_en": "United States of America", "country": "United States of America", "latitude": "39.11566", "longitude": "-77.5636", "geonameid": "4769125"},
{"city": "Lynchburg", "region": "Virginia", "country_en": "United States of America", "country": "United States of America", "latitude": "37.41375", "longitude": "-79.14225", "geonameid": "4771075"},
{"city": "Newport News", "region": "Virginia", "country_en": "United States of America", "country": "United States of America", "latitude": "37.08339", "longitude": "-76.46965", "geonameid": "4776024"},
{"city": "Norfolk", "region": "Virginia", "country_en": "United States of America", "country": "United States of America", "latitude": "36.84681", "longitude": "-76.28522", "geonameid": "4776222"},
{"city": "Portsmouth", "region": "Virginia", "country_en": "United States of America", "country": "United States of America", "latitude": "36.83543", "longitude": "-76.29827", "geonameid": "4779999"},
{"city": "Portsmouth Heights", "region": "Virginia", "country_en": "United States of America", "country": "United States of America", "latitude": "36.82098", "longitude": "-76.36883", "geonameid": "4780011"},
{"city": "Reston", "region": "Virginia", "country_en": "United States of America", "country": "United States of America", "latitude": "38.96872", "longitude": "-77.3411", "geonameid": "4781530"},
{"city": "Richmond", "region": "Virginia", "country_en": "United States of America", "country": "United States of America", "latitude": "37.55376", "longitude": "-77.46026", "geonameid": "4781708"},
{"city": "Roanoke", "region": "Virginia", "country_en": "United States of America", "country": "United States of America", "latitude": "37.27097", "longitude": "-79.94143", "geonameid": "4782167"},
{"city": "South Suffolk", "region": "Virginia", "country_en": "United States of America", "country": "United States of America", "latitude": "36.71709", "longitude": "-76.59023", "geonameid": "4786714"},
{"city": "Suffolk", "region": "Virginia", "country_en": "United States of America", "country": "United States of America", "latitude": "36.72836", "longitude": "-76.58496", "geonameid": "4788158"},
{"city": "Virginia Beach", "region": "Virginia", "country_en": "United States of America", "country": "United States of America", "latitude": "36.85293", "longitude": "-75.97799", "geonameid": "4791259"},
{"city": "West Lynchburg", "region": "Virginia", "country_en": "United States of America", "country": "United States of America", "latitude": "37.4032", "longitude": "-79.17808", "geonameid": "4792867"},
{"city": "Auburn", "region": "Alabama", "country_en": "United States of America", "country": "United States of America", "latitude": "32.60986", "longitude": "-85.48078", "geonameid": "4830796"},
{"city": "Revere", "region": "Massachusetts", "country_en": "United States of America", "country": "United States of America", "latitude": "42.40843", "longitude": "-71.01199", "geonameid": "4832294"},
{"city": "Danbury", "region": "Connecticut", "country_en": "United States of America", "country": "United States of America", "latitude": "41.39482", "longitude": "-73.45401", "geonameid": "4832353"},
{"city": "East Hartford", "region": "Connecticut", "country_en": "United States of America", "country": "United States of America", "latitude": "41.78232", "longitude": "-72.61203", "geonameid": "4833403"},
{"city": "East Norwalk", "region": "Connecticut", "country_en": "United States of America", "country": "United States of America", "latitude": "41.10565", "longitude": "-73.39845", "geonameid": "4833505"},
{"city": "Fairfield", "region": "Connecticut", "country_en": "United States of America", "country": "United States of America", "latitude": "41.14121", "longitude": "-73.26373", "geonameid": "4834157"},
{"city": "Hamden", "region": "Connecticut", "country_en": "United States of America", "country": "United States of America", "latitude": "41.39593", "longitude": "-72.89677", "geonameid": "4835654"},
{"city": "Hartford", "region": "Connecticut", "country_en": "United States of America", "country": "United States of America", "latitude": "41.76371", "longitude": "-72.68509", "geonameid": "4835797"},
{"city": "Meriden", "region": "Connecticut", "country_en": "United States of America", "country": "United States of America", "latitude": "41.53815", "longitude": "-72.80704", "geonameid": "4838524"},
{"city": "Milford", "region": "Connecticut", "country_en": "United States of America", "country": "United States of America", "latitude": "41.22232", "longitude": "-73.0565", "geonameid": "4838652"},
{"city": "New Britain", "region": "Connecticut", "country_en": "United States of America", "country": "United States of America", "latitude": "41.66121", "longitude": "-72.77954", "geonameid": "4839292"},
{"city": "New Haven", "region": "Connecticut", "country_en": "United States of America", "country": "United States of America", "latitude": "41.30815", "longitude": "-72.92816", "geonameid": "4839366"},
{"city": "North Stamford", "region": "Connecticut", "country_en": "United States of America", "country": "United States of America", "latitude": "41.13815", "longitude": "-73.54346", "geonameid": "4839745"},
{"city": "Norwalk", "region": "Connecticut", "country_en": "United States of America", "country": "United States of America", "latitude": "41.1176", "longitude": "-73.4079", "geonameid": "4839822"},
{"city": "Stamford", "region": "Connecticut", "country_en": "United States of America", "country": "United States of America", "latitude": "41.05343", "longitude": "-73.53873", "geonameid": "4843564"},
{"city": "Stratford", "region": "Connecticut", "country_en": "United States of America", "country": "United States of America", "latitude": "41.18454", "longitude": "-73.13317", "geonameid": "4843811"},
{"city": "Waterbury", "region": "Connecticut", "country_en": "United States of America", "country": "United States of America", "latitude": "41.55815", "longitude": "-73.0515", "geonameid": "4845193"},
{"city": "West Hartford", "region": "Connecticut", "country_en": "United States of America", "country": "United States of America", "latitude": "41.76204", "longitude": "-72.74204", "geonameid": "4845411"},
{"city": "West Haven", "region": "Connecticut", "country_en": "United States of America", "country": "United States of America", "latitude": "41.27065", "longitude": "-72.94705", "geonameid": "4845419"},
{"city": "Ames", "region": "Iowa", "country_en": "United States of America", "country": "United States of America", "latitude": "42.03471", "longitude": "-93.61994", "geonameid": "4846834"},
{"city": "Ankeny", "region": "Iowa", "country_en": "United States of America", "country": "United States of America", "latitude": "41.72971", "longitude": "-93.60577", "geonameid": "4846960"},
{"city": "Cedar Rapids", "region": "Iowa", "country_en": "United States of America", "country": "United States of America", "latitude": "42.00833", "longitude": "-91.64407", "geonameid": "4850751"},
{"city": "Council Bluffs", "region": "Iowa", "country_en": "United States of America", "country": "United States of America", "latitude": "41.26194", "longitude": "-95.86083", "geonameid": "4852832"},
{"city": "Davenport", "region": "Iowa", "country_en": "United States of America", "country": "United States of America", "latitude": "41.52364", "longitude": "-90.57764", "geonameid": "4853423"},
{"city": "Des Moines", "region": "Iowa", "country_en": "United States of America", "country": "United States of America", "latitude": "41.60054", "longitude": "-93.60911", "geonameid": "4853828"},
{"city": "Dubuque", "region": "Iowa", "country_en": "United States of America", "country": "United States of America", "latitude": "42.50056", "longitude": "-90.66457", "geonameid": "4854529"},
{"city": "Iowa City", "region": "Iowa", "country_en": "United States of America", "country": "United States of America", "latitude": "41.66113", "longitude": "-91.53017", "geonameid": "4862034"},
{"city": "Sioux City", "region": "Iowa", "country_en": "United States of America", "country": "United States of America", "latitude": "42.49999", "longitude": "-96.40031", "geonameid": "4876523"},
{"city": "Waterloo", "region": "Iowa", "country_en": "United States of America", "country": "United States of America", "latitude": "42.49276", "longitude": "-92.34296", "geonameid": "4880889"},
{"city": "West Des Moines", "region": "Iowa", "country_en": "United States of America", "country": "United States of America", "latitude": "41.57721", "longitude": "-93.71133", "geonameid": "4881346"},
{"city": "Albany Park", "region": "Illinois", "country_en": "United States of America", "country": "United States of America", "latitude": "41.96836", "longitude": "-87.72339", "geonameid": "4883012"},
{"city": "Arlington Heights", "region": "Illinois", "country_en": "United States of America", "country": "United States of America", "latitude": "42.08836", "longitude": "-87.98063", "geonameid": "4883555"},
{"city": "Aurora", "region": "Illinois", "country_en": "United States of America", "country": "United States of America", "latitude": "41.76058", "longitude": "-88.32007", "geonameid": "4883817"},
{"city": "Belmont Cragin", "region": "Illinois", "country_en": "United States of America", "country": "United States of America", "latitude": "41.9317", "longitude": "-87.76867", "geonameid": "4884442"},
{"city": "Berwyn", "region": "Illinois", "country_en": "United States of America", "country": "United States of America", "latitude": "41.85059", "longitude": "-87.79367", "geonameid": "4884597"},
{"city": "Bloomington", "region": "Illinois", "country_en": "United States of America", "country": "United States of America", "latitude": "40.4842", "longitude": "-88.99369", "geonameid": "4885164"},
{"city": "Bolingbrook", "region": "Illinois", "country_en": "United States of America", "country": "United States of America", "latitude": "41.69864", "longitude": "-88.0684", "geonameid": "4885265"},
{"city": "Champaign", "region": "Illinois", "country_en": "United States of America", "country": "United States of America", "latitude": "40.11642", "longitude": "-88.24338", "geonameid": "4887158"},
{"city": "Chicago", "region": "Illinois", "country_en": "United States of America", "country": "United States of America", "latitude": "41.85003", "longitude": "-87.65005", "geonameid": "4887398"},
{"city": "Chicago Lawn", "region": "Illinois", "country_en": "United States of America", "country": "United States of America", "latitude": "41.77503", "longitude": "-87.69644", "geonameid": "4887463"},
{"city": "Cicero", "region": "Illinois", "country_en": "United States of America", "country": "United States of America", "latitude": "41.84559", "longitude": "-87.75394", "geonameid": "4888015"},
{"city": "Des Plaines", "region": "Illinois", "country_en": "United States of America", "country": "United States of America", "latitude": "42.03336", "longitude": "-87.8834", "geonameid": "4889772"},
{"city": "Edgewater", "region": "Illinois", "country_en": "United States of America", "country": "United States of America", "latitude": "41.98337", "longitude": "-87.66395", "geonameid": "4890701"},
{"city": "Elgin", "region": "Illinois", "country_en": "United States of America", "country": "United States of America", "latitude": "42.03725", "longitude": "-88.28119", "geonameid": "4890864"},
{"city": "Evanston", "region": "Illinois", "country_en": "United States of America", "country": "United States of America", "latitude": "42.04114", "longitude": "-87.69006", "geonameid": "4891382"},
{"city": "Hoffman Estates", "region": "Illinois", "country_en": "United States of America", "country": "United States of America", "latitude": "42.04281", "longitude": "-88.0798", "geonameid": "4896075"},
{"city": "Irving Park", "region": "Illinois", "country_en": "United States of America", "country": "United States of America", "latitude": "41.95336", "longitude": "-87.73645", "geonameid": "4897543"},
{"city": "Joliet", "region": "Illinois", "country_en": "United States of America", "country": "United States of America", "latitude": "41.52519", "longitude": "-88.0834", "geonameid": "4898015"},
{"city": "Lincoln Park", "region": "Illinois", "country_en": "United States of America", "country": "United States of America", "latitude": "41.9217", "longitude": "-87.64783", "geonameid": "4899911"},
{"city": "Logan Square", "region": "Illinois", "country_en": "United States of America", "country": "United States of America", "latitude": "41.92337", "longitude": "-87.69922", "geonameid": "4900358"},
{"city": "Mount Prospect", "region": "Illinois", "country_en": "United States of America", "country": "United States of America", "latitude": "42.06642", "longitude": "-87.93729", "geonameid": "4903024"},
{"city": "Naperville", "region": "Illinois", "country_en": "United States of America", "country": "United States of America", "latitude": "41.78586", "longitude": "-88.14729", "geonameid": "4903279"},
{"city": "Near North Side", "region": "Illinois", "country_en": "United States of America", "country": "United States of America", "latitude": "41.90003", "longitude": "-87.6345", "geonameid": "4903360"},
{"city": "Normal", "region": "Illinois", "country_en": "United States of America", "country": "United States of America", "latitude": "40.5142", "longitude": "-88.99063", "geonameid": "4903780"},
{"city": "North Peoria", "region": "Illinois", "country_en": "United States of America", "country": "United States of America", "latitude": "40.71754", "longitude": "-89.58426", "geonameid": "4903976"},
{"city": "Oak Lawn", "region": "Illinois", "country_en": "United States of America", "country": "United States of America", "latitude": "41.71087", "longitude": "-87.75811", "geonameid": "4904365"},
{"city": "Oak Park", "region": "Illinois", "country_en": "United States of America", "country": "United States of America", "latitude": "41.88503", "longitude": "-87.7845", "geonameid": "4904381"},
{"city": "Orland Park", "region": "Illinois", "country_en": "United States of America", "country": "United States of America", "latitude": "41.63031", "longitude": "-87.85394", "geonameid": "4904937"},
{"city": "Palatine", "region": "Illinois", "country_en": "United States of America", "country": "United States of America", "latitude": "42.1103", "longitude": "-88.03424", "geonameid": "4905211"},
{"city": "Peoria", "region": "Illinois", "country_en": "United States of America", "country": "United States of America", "latitude": "40.69365", "longitude": "-89.58899", "geonameid": "4905687"},
{"city": "Portage Park", "region": "Illinois", "country_en": "United States of America", "country": "United States of America", "latitude": "41.95781", "longitude": "-87.76506", "geonameid": "4906500"},
{"city": "Rockford", "region": "Illinois", "country_en": "United States of America", "country": "United States of America", "latitude": "42.27113", "longitude": "-89.094", "geonameid": "4907959"},
{"city": "Rogers Park", "region": "Illinois", "country_en": "United States of America", "country": "United States of America", "latitude": "42.00864", "longitude": "-87.66672", "geonameid": "4908033"},
{"city": "Schaumburg", "region": "Illinois", "country_en": "United States of America", "country": "United States of America", "latitude": "42.03336", "longitude": "-88.08341", "geonameid": "4910713"},
{"city": "Skokie", "region": "Illinois", "country_en": "United States of America", "country": "United States of America", "latitude": "42.03336", "longitude": "-87.73339", "geonameid": "4911600"},
{"city": "South Lawndale", "region": "Illinois", "country_en": "United States of America", "country": "United States of America", "latitude": "41.84364", "longitude": "-87.71255", "geonameid": "4911951"},
{"city": "South Shore", "region": "Illinois", "country_en": "United States of America", "country": "United States of America", "latitude": "41.76198", "longitude": "-87.57783", "geonameid": "4912013"},
{"city": "Tinley Park", "region": "Illinois", "country_en": "United States of America", "country": "United States of America", "latitude": "41.57337", "longitude": "-87.78449", "geonameid": "4913723"},
{"city": "Uptown", "region": "Illinois", "country_en": "United States of America", "country": "United States of America", "latitude": "41.9659", "longitude": "-87.65262", "geonameid": "4914557"},
{"city": "Waukegan", "region": "Illinois", "country_en": "United States of America", "country": "United States of America", "latitude": "42.36363", "longitude": "-87.84479", "geonameid": "4915734"},
{"city": "West Ridge", "region": "Illinois", "country_en": "United States of America", "country": "United States of America", "latitude": "41.99975", "longitude": "-87.69284", "geonameid": "4916079"},
{"city": "West Town", "region": "Illinois", "country_en": "United States of America", "country": "United States of America", "latitude": "41.89381", "longitude": "-87.67493", "geonameid": "4916118"},
{"city": "Wheaton", "region": "Illinois", "country_en": "United States of America", "country": "United States of America", "latitude": "41.86614", "longitude": "-88.10701", "geonameid": "4916288"},
{"city": "Anderson", "region": "Indiana", "country_en": "United States of America", "country": "United States of America", "latitude": "40.10532", "longitude": "-85.68025", "geonameid": "4917592"},
{"city": "Elkhart", "region": "Indiana", "country_en": "United States of America", "country": "United States of America", "latitude": "41.68199", "longitude": "-85.97667", "geonameid": "4919987"},
{"city": "Fort Wayne", "region": "Indiana", "country_en": "United States of America", "country": "United States of America", "latitude": "41.1306", "longitude": "-85.12886", "geonameid": "4920423"},
{"city": "Gary", "region": "Indiana", "country_en": "United States of America", "country": "United States of America", "latitude": "41.59337", "longitude": "-87.34643", "geonameid": "4920607"},
{"city": "Hammond", "region": "Indiana", "country_en": "United States of America", "country": "United States of America", "latitude": "41.58337", "longitude": "-87.50004", "geonameid": "4921100"},
{"city": "Kokomo", "region": "Indiana", "country_en": "United States of America", "country": "United States of America", "latitude": "40.48643", "longitude": "-86.1336", "geonameid": "4922388"},
{"city": "Lafayette", "region": "Indiana", "country_en": "United States of America", "country": "United States of America", "latitude": "40.4167", "longitude": "-86.87529", "geonameid": "4922462"},
{"city": "Muncie", "region": "Indiana", "country_en": "United States of America", "country": "United States of America", "latitude": "40.19338", "longitude": "-85.38636", "geonameid": "4924006"},
{"city": "Noblesville", "region": "Indiana", "country_en": "United States of America", "country": "United States of America", "latitude": "40.04559", "longitude": "-86.0086", "geonameid": "4924198"},
{"city": "South Bend", "region": "Indiana", "country_en": "United States of America", "country": "United States of America", "latitude": "41.68338", "longitude": "-86.25001", "geonameid": "4926563"},
{"city": "Boston", "region": "Massachusetts", "country_en": "United States of America", "country": "United States of America", "latitude": "42.35843", "longitude": "-71.05977", "geonameid": "4930956"},
{"city": "Brockton", "region": "Massachusetts", "country_en": "United States of America", "country": "United States of America", "latitude": "42.08343", "longitude": "-71.01838", "geonameid": "4931429"},
{"city": "Brookline", "region": "Massachusetts", "country_en": "United States of America", "country": "United States of America", "latitude": "42.33176", "longitude": "-71.12116", "geonameid": "4931482"},
{"city": "Cambridge", "region": "Massachusetts", "country_en": "United States of America", "country": "United States of America", "latitude": "42.3751", "longitude": "-71.10561", "geonameid": "4931972"},
{"city": "Chicopee", "region": "Massachusetts", "country_en": "United States of America", "country": "United States of America", "latitude": "42.1487", "longitude": "-72.60787", "geonameid": "4933002"},
{"city": "Fall River", "region": "Massachusetts", "country_en": "United States of America", "country": "United States of America", "latitude": "41.70149", "longitude": "-71.15505", "geonameid": "4936159"},
{"city": "Framingham", "region": "Massachusetts", "country_en": "United States of America", "country": "United States of America", "latitude": "42.27926", "longitude": "-71.41617", "geonameid": "4937230"},
{"city": "Framingham Center", "region": "Massachusetts", "country_en": "United States of America", "country": "United States of America", "latitude": "42.29732", "longitude": "-71.43701", "geonameid": "4937232"},
{"city": "Haverhill", "region": "Massachusetts", "country_en": "United States of America", "country": "United States of America", "latitude": "42.7762", "longitude": "-71.07728", "geonameid": "4939085"},
{"city": "Lawrence", "region": "Massachusetts", "country_en": "United States of America", "country": "United States of America", "latitude": "42.70704", "longitude": "-71.16311", "geonameid": "4941720"},
{"city": "Lowell", "region": "Massachusetts", "country_en": "United States of America", "country": "United States of America", "latitude": "42.63342", "longitude": "-71.31617", "geonameid": "4942618"},
{"city": "Lynn", "region": "Massachusetts", "country_en": "United States of America", "country": "United States of America", "latitude": "42.46676", "longitude": "-70.94949", "geonameid": "4942807"},
{"city": "Malden", "region": "Massachusetts", "country_en": "United States of America", "country": "United States of America", "latitude": "42.4251", "longitude": "-71.06616", "geonameid": "4942939"},
{"city": "Medford", "region": "Massachusetts", "country_en": "United States of America", "country": "United States of America", "latitude": "42.41843", "longitude": "-71.10616", "geonameid": "4943629"},
{"city": "Methuen", "region": "Massachusetts", "country_en": "United States of America", "country": "United States of America", "latitude": "42.7262", "longitude": "-71.19089", "geonameid": "4943828"},
{"city": "New Bedford", "region": "Massachusetts", "country_en": "United States of America", "country": "United States of America", "latitude": "41.63526", "longitude": "-70.92701", "geonameid": "4945121"},
{"city": "Newton", "region": "Massachusetts", "country_en": "United States of America", "country": "United States of America", "latitude": "42.33704", "longitude": "-71.20922", "geonameid": "4945283"},
{"city": "North Chicopee", "region": "Massachusetts", "country_en": "United States of America", "country": "United States of America", "latitude": "42.18343", "longitude": "-72.59953", "geonameid": "4945588"},
{"city": "Peabody", "region": "Massachusetts", "country_en": "United States of America", "country": "United States of America", "latitude": "42.52787", "longitude": "-70.92866", "geonameid": "4946863"},
{"city": "Quincy", "region": "Massachusetts", "country_en": "United States of America", "country": "United States of America", "latitude": "42.25288", "longitude": "-71.00227", "geonameid": "4948247"},
{"city": "Somerville", "region": "Massachusetts", "country_en": "United States of America", "country": "United States of America", "latitude": "42.3876", "longitude": "-71.0995", "geonameid": "4951257"},
{"city": "South Boston", "region": "Massachusetts", "country_en": "United States of America", "country": "United States of America", "latitude": "42.33343", "longitude": "-71.04949", "geonameid": "4951305"},
{"city": "South Peabody", "region": "Massachusetts", "country_en": "United States of America", "country": "United States of America", "latitude": "42.50982", "longitude": "-70.94949", "geonameid": "4951473"},
{"city": "Springfield", "region": "Massachusetts", "country_en": "United States of America", "country": "United States of America", "latitude": "42.10148", "longitude": "-72.58981", "geonameid": "4951788"},
{"city": "Taunton", "region": "Massachusetts", "country_en": "United States of America", "country": "United States of America", "latitude": "41.9001", "longitude": "-71.08977", "geonameid": "4952629"},
{"city": "Waltham", "region": "Massachusetts", "country_en": "United States of America", "country": "United States of America", "latitude": "42.37649", "longitude": "-71.23561", "geonameid": "4954380"},
{"city": "Weymouth", "region": "Massachusetts", "country_en": "United States of America", "country": "United States of America", "latitude": "42.22093", "longitude": "-70.93977", "geonameid": "4955336"},
{"city": "Worcester", "region": "Massachusetts", "country_en": "United States of America", "country": "United States of America", "latitude": "42.26259", "longitude": "-71.80229", "geonameid": "4956184"},
{"city": "Portland", "region": "Maine", "country_en": "United States of America", "country": "United States of America", "latitude": "43.65737", "longitude": "-70.2589", "geonameid": "4975802"},
{"city": "Ann Arbor", "region": "Michigan", "country_en": "United States of America", "country": "United States of America", "latitude": "42.27756", "longitude": "-83.74088", "geonameid": "4984247"},
{"city": "Battle Creek", "region": "Michigan", "country_en": "United States of America", "country": "United States of America", "latitude": "42.3173", "longitude": "-85.17816", "geonameid": "4985153"},
{"city": "Canton", "region": "Michigan", "country_en": "United States of America", "country": "United States of America", "latitude": "42.30865", "longitude": "-83.48216", "geonameid": "4987990"},
{"city": "Clinton Township", "region": "Michigan", "country_en": "United States of America", "country": "United States of America", "latitude": "42.58698", "longitude": "-82.91992", "geonameid": "4989133"},
{"city": "Dearborn", "region": "Michigan", "country_en": "United States of America", "country": "United States of America", "latitude": "42.32226", "longitude": "-83.17631", "geonameid": "4990510"},
{"city": "Dearborn Heights", "region": "Michigan", "country_en": "United States of America", "country": "United States of America", "latitude": "42.33698", "longitude": "-83.27326", "geonameid": "4990512"},
{"city": "Detroit", "region": "Michigan", "country_en": "United States of America", "country": "United States of America", "latitude": "42.33143", "longitude": "-83.04575", "geonameid": "4990729"},
{"city": "Farmington Hills", "region": "Michigan", "country_en": "United States of America", "country": "United States of America", "latitude": "42.48531", "longitude": "-83.37716", "geonameid": "4992523"},
{"city": "Flint", "region": "Michigan", "country_en": "United States of America", "country": "United States of America", "latitude": "43.01253", "longitude": "-83.68746", "geonameid": "4992982"},
{"city": "Grand Rapids", "region": "Michigan", "country_en": "United States of America", "country": "United States of America", "latitude": "42.96336", "longitude": "-85.66809", "geonameid": "4994358"},
{"city": "Kalamazoo", "region": "Michigan", "country_en": "United States of America", "country": "United States of America", "latitude": "42.29171", "longitude": "-85.58723", "geonameid": "4997787"},
{"city": "Kentwood", "region": "Michigan", "country_en": "United States of America", "country": "United States of America", "latitude": "42.86947", "longitude": "-85.64475", "geonameid": "4998018"},
{"city": "Lansing", "region": "Michigan", "country_en": "United States of America", "country": "United States of America", "latitude": "42.73253", "longitude": "-84.55553", "geonameid": "4998830"},
{"city": "Livonia", "region": "Michigan", "country_en": "United States of America", "country": "United States of America", "latitude": "42.36837", "longitude": "-83.35271", "geonameid": "4999837"},
{"city": "Novi", "region": "Michigan", "country_en": "United States of America", "country": "United States of America", "latitude": "42.48059", "longitude": "-83.47549", "geonameid": "5004062"},
{"city": "Pontiac", "region": "Michigan", "country_en": "United States of America", "country": "United States of America", "latitude": "42.63892", "longitude": "-83.29105", "geonameid": "5006166"},
{"city": "Rochester Hills", "region": "Michigan", "country_en": "United States of America", "country": "United States of America", "latitude": "42.65837", "longitude": "-83.14993", "geonameid": "5007402"},
{"city": "Royal Oak", "region": "Michigan", "country_en": "United States of America", "country": "United States of America", "latitude": "42.48948", "longitude": "-83.14465", "geonameid": "5007804"},
{"city": "Shelby", "region": "Michigan", "country_en": "United States of America", "country": "United States of America", "latitude": "42.67087", "longitude": "-83.03298", "geonameid": "5009586"},
{"city": "Southfield", "region": "Michigan", "country_en": "United States of America", "country": "United States of America", "latitude": "42.47337", "longitude": "-83.22187", "geonameid": "5010636"},
{"city": "Saint Clair Shores", "region": "Michigan", "country_en": "United States of America", "country": "United States of America", "latitude": "42.49698", "longitude": "-82.88881", "geonameid": "5010978"},
{"city": "Sterling Heights", "region": "Michigan", "country_en": "United States of America", "country": "United States of America", "latitude": "42.58031", "longitude": "-83.0302", "geonameid": "5011148"},
{"city": "Taylor", "region": "Michigan", "country_en": "United States of America", "country": "United States of America", "latitude": "42.24087", "longitude": "-83.26965", "geonameid": "5011908"},
{"city": "Troy", "region": "Michigan", "country_en": "United States of America", "country": "United States of America", "latitude": "42.60559", "longitude": "-83.14993", "geonameid": "5012639"},
{"city": "Warren", "region": "Michigan", "country_en": "United States of America", "country": "United States of America", "latitude": "42.49044", "longitude": "-83.01304", "geonameid": "5014051"},
{"city": "Waterford", "region": "Michigan", "country_en": "United States of America", "country": "United States of America", "latitude": "42.69303", "longitude": "-83.41181", "geonameid": "5014130"},
{"city": "Westland", "region": "Michigan", "country_en": "United States of America", "country": "United States of America", "latitude": "42.3242", "longitude": "-83.40021", "geonameid": "5014681"},
{"city": "Wyoming", "region": "Michigan", "country_en": "United States of America", "country": "United States of America", "latitude": "42.91336", "longitude": "-85.70531", "geonameid": "5015618"},
{"city": "Apple Valley", "region": "Minnesota", "country_en": "United States of America", "country": "United States of America", "latitude": "44.73191", "longitude": "-93.21772", "geonameid": "5016494"},
{"city": "Blaine", "region": "Minnesota", "country_en": "United States of America", "country": "United States of America", "latitude": "45.1608", "longitude": "-93.23495", "geonameid": "5018651"},
{"city": "Bloomington", "region": "Minnesota", "country_en": "United States of America", "country": "United States of America", "latitude": "44.8408", "longitude": "-93.29828", "geonameid": "5018739"},
{"city": "Brooklyn Park", "region": "Minnesota", "country_en": "United States of America", "country": "United States of America", "latitude": "45.09413", "longitude": "-93.35634", "geonameid": "5019335"},
{"city": "Burnsville", "region": "Minnesota", "country_en": "United States of America", "country": "United States of America", "latitude": "44.76774", "longitude": "-93.27772", "geonameid": "5019767"},
{"city": "Coon Rapids", "region": "Minnesota", "country_en": "United States of America", "country": "United States of America", "latitude": "45.11997", "longitude": "-93.28773", "geonameid": "5022025"},
{"city": "Duluth", "region": "Minnesota", "country_en": "United States of America", "country": "United States of America", "latitude": "46.78327", "longitude": "-92.10658", "geonameid": "5024719"},
{"city": "Eagan", "region": "Minnesota", "country_en": "United States of America", "country": "United States of America", "latitude": "44.80413", "longitude": "-93.16689", "geonameid": "5024825"},
{"city": "Eden Prairie", "region": "Minnesota", "country_en": "United States of America", "country": "United States of America", "latitude": "44.85469", "longitude": "-93.47079", "geonameid": "5025219"},
{"city": "Edina", "region": "Minnesota", "country_en": "United States of America", "country": "United States of America", "latitude": "44.88969", "longitude": "-93.34995", "geonameid": "5025264"},
{"city": "Lakeville", "region": "Minnesota", "country_en": "United States of America", "country": "United States of America", "latitude": "44.64969", "longitude": "-93.24272", "geonameid": "5034059"},
{"city": "Maple Grove", "region": "Minnesota", "country_en": "United States of America", "country": "United States of America", "latitude": "45.07246", "longitude": "-93.45579", "geonameid": "5036493"},
{"city": "Minneapolis", "region": "Minnesota", "country_en": "United States of America", "country": "United States of America", "latitude": "44.97997", "longitude": "-93.26384", "geonameid": "5037649"},
{"city": "Minnetonka", "region": "Minnesota", "country_en": "United States of America", "country": "United States of America", "latitude": "44.9133", "longitude": "-93.50329", "geonameid": "5037784"},
{"city": "Minnetonka Mills", "region": "Minnesota", "country_en": "United States of America", "country": "United States of America", "latitude": "44.94107", "longitude": "-93.4419", "geonameid": "5037790"},
{"city": "Plymouth", "region": "Minnesota", "country_en": "United States of America", "country": "United States of America", "latitude": "45.01052", "longitude": "-93.45551", "geonameid": "5041926"},
{"city": "Rochester", "region": "Minnesota", "country_en": "United States of America", "country": "United States of America", "latitude": "44.02163", "longitude": "-92.4699", "geonameid": "5043473"},
{"city": "Saint Cloud", "region": "Minnesota", "country_en": "United States of America", "country": "United States of America", "latitude": "45.5608", "longitude": "-94.16249", "geonameid": "5044407"},
{"city": "Saint Paul", "region": "Minnesota", "country_en": "United States of America", "country": "United States of America", "latitude": "44.94441", "longitude": "-93.09327", "geonameid": "5045360"},
{"city": "West Coon Rapids", "region": "Minnesota", "country_en": "United States of America", "country": "United States of America", "latitude": "45.15969", "longitude": "-93.34967", "geonameid": "5052361"},
{"city": "Woodbury", "region": "Minnesota", "country_en": "United States of America", "country": "United States of America", "latitude": "44.92386", "longitude": "-92.95938", "geonameid": "5053358"},
{"city": "Fargo", "region": "North Dakota", "country_en": "United States of America", "country": "United States of America", "latitude": "46.87719", "longitude": "-96.7898", "geonameid": "5059163"},
{"city": "Grand Forks", "region": "North Dakota", "country_en": "United States of America", "country": "United States of America", "latitude": "47.92526", "longitude": "-97.03285", "geonameid": "5059429"},
{"city": "Bellevue", "region": "Nebraska", "country_en": "United States of America", "country": "United States of America", "latitude": "41.13667", "longitude": "-95.89084", "geonameid": "5063805"},
{"city": "Grand Island", "region": "Nebraska", "country_en": "United States of America", "country": "United States of America", "latitude": "40.92501", "longitude": "-98.34201", "geonameid": "5069297"},
{"city": "Lincoln", "region": "Nebraska", "country_en": "United States of America", "country": "United States of America", "latitude": "40.8", "longitude": "-96.66696", "geonameid": "5072006"},
{"city": "Omaha", "region": "Nebraska", "country_en": "United States of America", "country": "United States of America", "latitude": "41.25626", "longitude": "-95.94043", "geonameid": "5074472"},
{"city": "Manchester", "region": "New Hampshire", "country_en": "United States of America", "country": "United States of America", "latitude": "42.99564", "longitude": "-71.45479", "geonameid": "5089178"},
{"city": "Nashua", "region": "New Hampshire", "country_en": "United States of America", "country": "United States of America", "latitude": "42.76537", "longitude": "-71.46757", "geonameid": "5090046"},
{"city": "Bayonne", "region": "New Jersey", "country_en": "United States of America", "country": "United States of America", "latitude": "40.66871", "longitude": "-74.11431", "geonameid": "5095445"},
{"city": "Clifton", "region": "New Jersey", "country_en": "United States of America", "country": "United States of America", "latitude": "40.85843", "longitude": "-74.16376", "geonameid": "5096699"},
{"city": "East Orange", "region": "New Jersey", "country_en": "United States of America", "country": "United States of America", "latitude": "40.76732", "longitude": "-74.20487", "geonameid": "5097441"},
{"city": "Edison", "region": "New Jersey", "country_en": "United States of America", "country": "United States of America", "latitude": "40.51872", "longitude": "-74.4121", "geonameid": "5097529"},
{"city": "Elizabeth", "region": "New Jersey", "country_en": "United States of America", "country": "United States of America", "latitude": "40.66399", "longitude": "-74.2107", "geonameid": "5097598"},
{"city": "Hoboken", "region": "New Jersey", "country_en": "United States of America", "country": "United States of America", "latitude": "40.74399", "longitude": "-74.03236", "geonameid": "5099133"},
{"city": "Irvington", "region": "New Jersey", "country_en": "United States of America", "country": "United States of America", "latitude": "40.73232", "longitude": "-74.23487", "geonameid": "5099724"},